[
  {
    "id": 1,
    "name": "킷테",
    "type": "카페",
    "address": "서울 용산구 청파로47가길 9-6",
    "postcode" : "04313",
    "rating": 4.1,
    "tag" : ["맛차크림커피", "숙대카페", "용산카페", "적산가옥", "크림커피", "카카오페이"],
    "detail" : ["wifi 가능", "동물출입 불가", "주차 불가", "휠체어사용 불가", "놀이방 없음"],
    "location" : [37.544216, 126.967125],
    "distance" : 1.144415593548167
  },
  {
    "id": 2,
    "name": "킵햅",
    "type": "카페",
    "address": "서울 용산구 원효로97길 37",
    "postcode" : "04314",
    "rating": 4.8,
    "tag" : ["카카오페이" ,"제로페이"],
    "detail" : ["예약 가능", "포장 가능", "주차 불가"],
    "location" : [37.542187, 126.968565],
    "distance" : 0.895956529256863
  },
  {
    "id": 3,
    "name": "심결소문난수제순대감자탕",
    "type": "한식",
    "address": "서울 용산구 청파로 279-1",
    "postcode" : "04313",
    "rating": 3.9,
    "tag" : ["제로페이"],
    "detail" : ["주차 불가"],
    "location" : [37.544512, 126.970427],
    "distance" : 1.1384236153376723
  },
  {
    "id": 4,
    "name": "츄르츄르라멘",
    "type": "일식",
    "address": "서울 용산구 청파로43길 11",
    "postcode" : "04313",
    "rating": 4.3,
    "tag" : ["혼밥", "제로페이"],
    "detail" : ["주차 불가", "포장 가능"],
    "location" : [37.543516, 126.969982],
    "distance" : 11.0286049068037457
  },
  {
    "id": 5,
    "name": "진미식당",
    "type": "한식",
    "address": "서울 용산구 백범로90길 46",
    "postcode" : "04369",
    "rating": 4.2,
    "tag" : ["백년가게", "진미식당", "오징어볶음맛집", "청국장맛집", "콩국수맛집", "노포", "제로페이"],
    "detail" : ["주차 불가", "포장 가능", "tv방영"],
    "location" : [37.543163, 126.972177],
    "distance" : 0.9996596245005415
  },
  {
    "id": 6,
    "name": "스시위크",
    "type": "일식",
    "address": "서울 용산구 백범로 275",
    "postcode" : "04318",
    "rating": 4.5,
    "tag" : ["제로페이", "혼밥"],
    "detail" : ["주차 불가", "포장 가능"],
    "location" : [37.541238, 126.948952],
    "distance" : 2.0501286210960927
  },
  {
    "id": 7,
    "name": "테드",
    "type": "양식",
    "address": "서울 용산구 백범로99길 40",
    "postcode" : "04375",
    "rating": 5.0,
    "tag" : ["카카오페이", "소개팅"],
    "detail" : ["주차 가능"],
    "location" : [37.535509, 126.971544],
    "distance" : 0.16626424775230408
  },
  {
    "id": 8,
    "name": "굴다리소곱창",
    "type": "한식",
    "address": "서울 용산구 청파로 269-1",
    "postcode" : "04313",
    "rating": 4.0,
    "tag" : ["노포"],
    "detail" : ["wifi 불가", "동물출입 불가", "주차 불가", "휠체어사용 불가", "놀이방 없음"],
    "location" : [37.543665, 126.970495],
    "distance" : 1.0442322857081137

  },
  {
    "id": 9,
    "name": "오츠커피",
    "type": "카페",
    "address": "서울 용산구 원효로89길 13-12",
    "postcode" : "04316",
    "rating": 4.4,
    "tag" : ["로스팅전문", "카카오페이", "제로페이"],
    "detail" : ["주차 불가", "포장 가능"],
    "location" : [37.540410, 126.967761],
    "distance" : 0.7232156072406245
  },
  {
    "id": 10,
    "name": "도만다",
    "type": "양식",
    "address": "서울 용산구 원효로 267",
    "postcode" : "04314",
    "rating": 4.8,
    "tag" : ["피맥", "카카오페이"],
    "detail" : ["주차 불가", "예약 가능"],
    "location" : [37.541176, 126.969887],
    "distance" : 0.7692524005752893

  }
]
